[
  {"id":"vn-hcm-001","name":"GameStation Vincom Center","address":"Vincom Center, 72 Lê Thánh Tôn, Bến Nghé, Q.1, TP.HCM","lat":10.7769,"lng":106.7009,"country":"Vietnam"},
  {"id":"vn-hcm-002","name":"Timezone Crescent Mall","address":"Crescent Mall, 101 Tôn Dật Tiên, Phú Mỹ Hưng, Q.7, TP.HCM","lat":10.7295,"lng":106.7184,"country":"Vietnam"},
  {"id":"vn-hcm-003","name":"GameStation Aeon Mall Bình Tân","address":"Aeon Mall Bình Tân, 1 Đường số 17A, Bình Trị Đông B, Q. Bình Tân, TP.HCM","lat":10.7477,"lng":106.6047,"country":"Vietnam"},
  {"id":"vn-hcm-004","name":"Timezone Aeon Mall Tân Phú","address":"Aeon Mall Tân Phú, 30 Bờ Bao Tân Thắng, Sơn Kỳ, Q. Tân Phú, TP.HCM","lat":10.7925,"lng":106.6286,"country":"Vietnam"},
  {"id":"vn-hcm-005","name":"GameStation SC VivoCity","address":"SC VivoCity, 1058 Nguyễn Văn Linh, Tân Phong, Q.7, TP.HCM","lat":10.7248,"lng":106.7193,"country":"Vietnam"},
  {"id":"vn-hcm-006","name":"Timezone Gigamall Thủ Đức","address":"Gigamall, 240-242 Hương lộ 2, Bình Trị Đông A, Q. Bình Tân, TP.HCM","lat":10.8448,"lng":106.7711,"country":"Vietnam"},
  {"id":"vn-hcm-007","name":"Funzone Landmark 81","address":"Vinhomes Central Park, 208 Nguyễn Hữu Cảnh, Bình Thạnh, TP.HCM","lat":10.7951,"lng":106.7218,"country":"Vietnam"},
  {"id":"vn-hcm-008","name":"Timezone Saigon Centre","address":"Saigon Centre, 65 Lê Lợi, Bến Nghé, Q.1, TP.HCM","lat":10.7729,"lng":106.6981,"country":"Vietnam"},
  {"id":"vn-hcm-009","name":"GameStation Aeon Mall Hà Đông","address":"Aeon Mall, 27 Cổ Linh, Long Biên, TP.HCM","lat":10.8112,"lng":106.7754,"country":"Vietnam"},
  {"id":"vn-hcm-010","name":"Fun World Estella Place","address":"Estella Place, 88 Song Hành, An Phú, Q.2, TP.HCM","lat":10.7998,"lng":106.7459,"country":"Vietnam"},
  {"id":"vn-hn-001","name":"GameStation Vincom Bà Triệu","address":"Vincom Bà Triệu, 191 Bà Triệu, Lê Đại Hành, Hai Bà Trưng, Hà Nội","lat":21.0119,"lng":105.8476,"country":"Vietnam"},
  {"id":"vn-hn-002","name":"Timezone Aeon Mall Long Biên","address":"Aeon Mall Long Biên, 27 Cổ Linh, Long Biên, Hà Nội","lat":21.0435,"lng":105.9044,"country":"Vietnam"},
  {"id":"vn-hn-003","name":"Timezone Vincom Nguyễn Chí Thanh","address":"Vincom Center, 54A Nguyễn Chí Thanh, Láng Thượng, Đống Đa, Hà Nội","lat":21.0252,"lng":105.8335,"country":"Vietnam"},
  {"id":"vn-hn-004","name":"Timezone Royal City","address":"Royal City, 72A Nguyễn Trãi, Thượng Đình, Thanh Xuân, Hà Nội","lat":20.9950,"lng":105.8237,"country":"Vietnam"},
  {"id":"vn-hn-005","name":"GameStation Times City","address":"Times City, 458 Minh Khai, Vĩnh Tuy, Hai Bà Trưng, Hà Nội","lat":20.9986,"lng":105.8627,"country":"Vietnam"},
  {"id":"vn-dn-001","name":"Timezone Vincom Đà Nẵng","address":"Vincom Plaza, 910A Ngô Quyền, Sơn Trà, Đà Nẵng","lat":16.0670,"lng":108.2337,"country":"Vietnam"},
  {"id":"vn-dn-002","name":"GameStation Lotte Mart Đà Nẵng","address":"Lotte Mart, 6 Nại Nam, Hòa Cường Bắc, Hải Châu, Đà Nẵng","lat":16.0501,"lng":108.2057,"country":"Vietnam"},
  {"id":"vn-ct-001","name":"Timezone Vincom Cần Thơ","address":"Vincom Plaza Cần Thơ, 209 Trần Hưng Đạo, An Phú, Ninh Kiều, Cần Thơ","lat":10.0333,"lng":105.7833,"country":"Vietnam"},
  {"id":"vn-hp-001","name":"Timezone Vincom Hải Phòng","address":"Vincom Center, 1 Lê Thánh Tông, Máy Tơ, Ngô Quyền, Hải Phòng","lat":20.8603,"lng":106.6878,"country":"Vietnam"},
  {"id":"vn-bd-001","name":"GameStation AEON MALL Bình Dương","address":"Aeon Mall Bình Dương, 1 Đại Lộ Bình Dương, Thuận Giao, Thuận An, Bình Dương","lat":10.9301,"lng":106.7068,"country":"Vietnam"},
  {"id":"au-mel-001","name":"TimeZone Melbourne Central","address":"Melbourne Central Shopping Centre, 300 Lonsdale St, Melbourne VIC 3000","lat":-37.8102,"lng":144.9629,"country":"Australia"},
  {"id":"au-mel-002","name":"TimeZone Chadstone","address":"Chadstone Shopping Centre, 1341 Dandenong Rd, Chadstone VIC 3148","lat":-37.8876,"lng":145.0793,"country":"Australia"},
  {"id":"au-mel-003","name":"TimeZone Westfield Doncaster","address":"Westfield Doncaster, 619 Doncaster Rd, Doncaster VIC 3108","lat":-37.7836,"lng":145.1264,"country":"Australia"},
  {"id":"au-mel-004","name":"Galactic Circus Crown","address":"Crown Entertainment Complex, 8 Whiteman St, Southbank VIC 3006","lat":-37.8228,"lng":144.9569,"country":"Australia"},
  {"id":"au-mel-005","name":"TimeZone Fountain Gate","address":"Westfield Fountain Gate, 352 Princes Hwy, Narre Warren VIC 3805","lat":-38.0185,"lng":145.3042,"country":"Australia"},
  {"id":"au-mel-006","name":"TimeZone Highpoint","address":"Highpoint Shopping Centre, 120-200 Rosamond Rd, Maribyrnong VIC 3032","lat":-37.7905,"lng":144.8874,"country":"Australia"},
  {"id":"au-mel-007","name":"TimeZone Northland","address":"Northland Shopping Centre, 2-50 Murray Rd, Preston VIC 3072","lat":-37.7393,"lng":145.0064,"country":"Australia"},
  {"id":"au-mel-008","name":"TimeZone Knox City","address":"Knox City Shopping Centre, 1 Knox City Centre, Wantirna South VIC 3152","lat":-37.8580,"lng":145.2415,"country":"Australia"},
  {"id":"au-adl-001","name":"TimeZone Westfield Marion","address":"Westfield Marion, 297 Diagonal Rd, Oaklands Park SA 5046","lat":-35.0016,"lng":138.5565,"country":"Australia"},
  {"id":"au-adl-002","name":"TimeZone Westfield Tea Tree Plaza","address":"Westfield Tea Tree Plaza, 976 North East Road, Modbury SA 5092","lat":-34.8320,"lng":138.6890,"country":"Australia"},
  {"id":"au-adl-003","name":"TimeZone Westfield West Lakes","address":"Westfield West Lakes, 111 W Lakes Blvd, West Lakes SA 5021","lat":-34.8750,"lng":138.4996,"country":"Australia"},
  {"id":"au-syd-001","name":"TimeZone Westfield Parramatta","address":"Westfield Parramatta, 159-175 Church St, Parramatta NSW 2150","lat":-33.8148,"lng":151.0017,"country":"Australia"},
  {"id":"au-syd-002","name":"TimeZone Westfield Bondi Junction","address":"Westfield Bondi Junction, 500 Oxford St, Bondi Junction NSW 2022","lat":-33.8920,"lng":151.2483,"country":"Australia"},
  {"id":"au-syd-003","name":"TimeZone Westfield Liverpool","address":"Westfield Liverpool, Macquarie St, Liverpool NSW 2170","lat":-33.9191,"lng":150.9249,"country":"Australia"},
  {"id":"au-bri-001","name":"TimeZone Westfield Chermside","address":"Westfield Chermside, 395 Hamilton Rd, Chermside QLD 4032","lat":-27.3869,"lng":153.0298,"country":"Australia"},
  {"id":"au-bri-002","name":"TimeZone Westfield Garden City","address":"Westfield Garden City, Logan Rd, Upper Mount Gravatt QLD 4122","lat":-27.5454,"lng":153.0699,"country":"Australia"},
  {"id":"au-per-001","name":"TimeZone Westfield Carousel","address":"Westfield Carousel, 1382 Albany Hwy, Cannington WA 6107","lat":-31.9960,"lng":115.9393,"country":"Australia"},
  {"id":"au-per-002","name":"TimeZone Westfield Innaloo","address":"Westfield Innaloo, Ellen Browne Rd, Innaloo WA 6018","lat":-31.8901,"lng":115.7956,"country":"Australia"},
  {"id":"jp-tky-001","name":"Round1 Shinjuku","address":"4-1-3 Shinjuku, Shinjuku-ku, Tokyo","lat":35.6938,"lng":139.7036,"country":"Japan"},
  {"id":"jp-tky-002","name":"Round1 Akihabara","address":"1-11-1 Sotokanda, Chiyoda-ku, Tokyo","lat":35.7022,"lng":139.7742,"country":"Japan"},
  {"id":"jp-tky-003","name":"Taito Station Shibuya","address":"1-11-1 Jinnan, Shibuya-ku, Tokyo","lat":35.6617,"lng":139.7009,"country":"Japan"},
  {"id":"jp-tky-004","name":"Round1 Ikebukuro","address":"1-22-8 Higashi-Ikebukuro, Toshima-ku, Tokyo","lat":35.7291,"lng":139.7138,"country":"Japan"},
  {"id":"sg-001","name":"Timezone VivoCity","address":"1 HarbourFront Walk, VivoCity, Singapore 098585","lat":1.2640,"lng":103.8214,"country":"Singapore"},
  {"id":"sg-002","name":"Timezone Jurong Point","address":"1 Jurong West Central 2, Singapore 648886","lat":1.3397,"lng":103.7067,"country":"Singapore"},
  {"id":"sg-003","name":"Timezone Northpoint City","address":"930 Yishun Ave 2, Singapore 769098","lat":1.4293,"lng":103.8354,"country":"Singapore"},
  {"id":"sg-004","name":"Timezone Bugis+","address":"201 Victoria St, Singapore 188067","lat":1.2992,"lng":103.8556,"country":"Singapore"},
  {"id":"tw-001","name":"Round1 Zhonghe","address":"246, Jingping Rd, Zhonghe District, New Taipei City","lat":24.9996,"lng":121.4969,"country":"Taiwan"},
  {"id":"tw-002","name":"Mister Donut Ximen","address":"Ximending, Wanhua District, Taipei City","lat":25.0424,"lng":121.5082,"country":"Taiwan"},
  {"id":"hk-001","name":"apm Arcade Zone","address":"apm, 418 Kwun Tong Rd, Kwun Tong, Hong Kong","lat":22.3128,"lng":114.2256,"country":"Hong Kong"},
  {"id":"hk-002","name":"Timezone Festival Walk","address":"Festival Walk, 80 Tat Chee Ave, Kowloon Tong, Hong Kong","lat":22.3369,"lng":114.1760,"country":"Hong Kong"},
  {"id":"my-001","name":"Timezone Sunway Pyramid","address":"Sunway Pyramid, 3, Jalan PJS 11/15, Bandar Sunway, 47500 Subang Jaya","lat":3.0731,"lng":101.6065,"country":"Malaysia"},
  {"id":"my-002","name":"Timezone Mid Valley","address":"Mid Valley Megamall, Mid Valley City, Lingkaran Syed Putra, 59200 KL","lat":3.1183,"lng":101.6773,"country":"Malaysia"},
  {"id":"th-001","name":"Timezone Central World","address":"CentralWorld, 4/1-4/2 Ratchadamri Rd, Pathum Wan, Bangkok 10330","lat":13.7468,"lng":100.5390,"country":"Thailand"},
  {"id":"th-002","name":"Timezone Seacon Square","address":"Seacon Square, 904 Si Udom Rd, Prawet, Bangkok 10250","lat":13.7019,"lng":100.6479,"country":"Thailand"},
  {"id":"kr-001","name":"Round1 Hongdae","address":"176-8 Donggyo-ro, Mapo-gu, Seoul","lat":37.5553,"lng":126.9238,"country":"South Korea"},
  {"id":"kr-002","name":"Playmix Gangnam","address":"Gangnam-daero, Gangnam-gu, Seoul","lat":37.4979,"lng":127.0276,"country":"South Korea"},
  {"id":"ph-001","name":"TimeZone SM Mall of Asia","address":"SM Mall of Asia, Seashell Ln, Pasay, Metro Manila","lat":14.5353,"lng":120.9816,"country":"Philippines"},
  {"id":"ph-002","name":"TimeZone SM Megamall","address":"SM Megamall, Doña Julia Vargas Ave, Ortigas Center, Mandaluyong","lat":14.5854,"lng":121.0566,"country":"Philippines"},
  {"id":"id-001","name":"TimeZone Grand Indonesia","address":"Grand Indonesia, Jl. MH Thamrin No.1, Menteng, Jakarta Pusat","lat":-6.1944,"lng":106.8229,"country":"Indonesia"},
  {"id":"id-002","name":"TimeZone Central Park","address":"Central Park Mall, Jl. Letjen S. Parman, Tanjung Duren, Jakarta Barat","lat":-6.1783,"lng":106.7903,"country":"Indonesia"}
]
